{
  "type" : "FeatureCollection",
  "features" : [{"type":"Feature","id":1,"geometry":{"type":"Point","coordinates":[-97.083819131999974,49.881561679000072]},"properties":{"OBJECTID":1,"station_code":1,"address":"864 Marion St","station_number":9,"station_type":"Fire Only","computed_region_6rfj_69jf":8,"latitude":49.881561678672512,"longitude":-97.083819131628061,"computed_region_38v8_cedi":60}},{"type":"Feature","id":2,"geometry":{"type":"Point","coordinates":[-97.143798194999988,49.877729730000055]},"properties":{"OBJECTID":2,"station_code":1,"address":"150 Osborne St","station_number":4,"station_type":"Fire Only","computed_region_6rfj_69jf":6,"latitude":49.877729730496846,"longitude":-97.143798195200716,"computed_region_38v8_cedi":57}},{"type":"Feature","id":3,"geometry":{"type":"Point","coordinates":[-97.12635921399999,49.945216613000071]},"properties":{"OBJECTID":3,"station_code":3,"address":"1001 McGregor St","station_number":16,"station_type":"Fire Paramedic Combined","computed_region_6rfj_69jf":4,"latitude":49.945216612695127,"longitude":-97.126359214296187,"computed_region_38v8_cedi":102}},{"type":"Feature","id":4,"geometry":{"type":"Point","coordinates":[-97.202049301999978,49.914011997000046]},"properties":{"OBJECTID":4,"station_code":3,"address":"1354 Border St","station_number":10,"station_type":"Fire Paramedic Combined","computed_region_6rfj_69jf":13,"latitude":49.914011996679299,"longitude":-97.202049302474592,"computed_region_38v8_cedi":48}},{"type":"Feature","id":5,"geometry":{"type":"Point","coordinates":[-97.256331943999953,49.874797306000062]},"properties":{"OBJECTID":5,"station_code":2,"address":"2490 Portage Ave","station_number":36,"station_type":"Paramedic Only","computed_region_6rfj_69jf":13,"latitude":49.874797305795099,"longitude":-97.256331944384655,"computed_region_38v8_cedi":216}},{"type":"Feature","id":6,"geometry":{"type":"Point","coordinates":[-97.067886357999953,49.949996174000034]},"properties":{"OBJECTID":6,"station_code":3,"address":"1665 Rothesay St","station_number":24,"station_type":"Fire Paramedic Combined","computed_region_6rfj_69jf":10,"latitude":49.94999617420838,"longitude":-97.06788635813281,"computed_region_38v8_cedi":10}},{"type":"Feature","id":7,"geometry":{"type":"Point","coordinates":[-97.145267295999986,49.922204392000026]},"properties":{"OBJECTID":7,"station_code":3,"address":"603 Redwood Ave","station_number":6,"station_type":"Fire Paramedic Combined","computed_region_6rfj_69jf":4,"latitude":49.922204392171302,"longitude":-97.145267295521066,"computed_region_38v8_cedi":144}},{"type":"Feature","id":8,"geometry":{"type":"Point","coordinates":[-97.254770202999964,49.880002086000047]},"properties":{"OBJECTID":8,"station_code":1,"address":"320 Whytewold Rd","station_number":19,"station_type":"Fire Only","computed_region_6rfj_69jf":13,"latitude":49.880002086296244,"longitude":-97.254770202832759,"computed_region_38v8_cedi":35}},{"type":"Feature","id":9,"geometry":{"type":"Point","coordinates":[-97.134524283999951,49.865734196000062]},"properties":{"OBJECTID":9,"station_code":2,"address":"524 Osborne St","station_number":30,"station_type":"Paramedic Only","computed_region_6rfj_69jf":6,"latitude":49.865734195608169,"longitude":-97.134524283523533,"computed_region_38v8_cedi":169}},{"type":"Feature","id":10,"geometry":{"type":"Point","coordinates":[-97.111528864999968,49.88299721900006]},"properties":{"OBJECTID":10,"station_code":1,"address":"337 Des Meurons St","station_number":3,"station_type":"Fire Only","computed_region_6rfj_69jf":8,"latitude":49.882997218823746,"longitude":-97.111528864638572,"computed_region_38v8_cedi":178}},{"type":"Feature","id":11,"geometry":{"type":"Point","coordinates":[-97.092821337999965,49.810700650000058]},"properties":{"OBJECTID":11,"station_code":3,"address":"1525 Dakota St","station_number":26,"station_type":"Fire Paramedic Combined","computed_region_6rfj_69jf":11,"latitude":49.810700650464284,"longitude":-97.092821337568509,"computed_region_38v8_cedi":211}},{"type":"Feature","id":12,"geometry":{"type":"Point","coordinates":[-97.111796092999953,49.837587800000051]},"properties":{"OBJECTID":12,"station_code":3,"address":"1057 St Mary's Rd","station_number":14,"station_type":"Fire Paramedic Combined","computed_region_6rfj_69jf":11,"latitude":49.837587800259186,"longitude":-97.111796092685665,"computed_region_38v8_cedi":114}},{"type":"Feature","id":13,"geometry":{"type":"Point","coordinates":[-97.077646992999973,49.86149529000005]},"properties":{"OBJECTID":13,"station_code":1,"address":"1083 Autumnwood Dr","station_number":15,"station_type":"Fire Only","computed_region_6rfj_69jf":8,"latitude":49.861495289653256,"longitude":-97.077646993308392,"computed_region_38v8_cedi":157}},{"type":"Feature","id":14,"geometry":{"type":"Point","coordinates":[-97.173136326999952,49.962042717000031]},"properties":{"OBJECTID":14,"station_code":1,"address":"10 Allan Blye Dr","station_number":7,"station_type":"Fire Only","computed_region_6rfj_69jf":2,"latitude":49.962042717109163,"longitude":-97.173136327243085,"computed_region_38v8_cedi":86}},{"type":"Feature","id":15,"geometry":{"type":"Point","coordinates":[-97.180202046999966,49.82031003600008]},"properties":{"OBJECTID":15,"station_code":3,"address":"1567 Waverley St","station_number":22,"station_type":"Fire Paramedic Combined","computed_region_6rfj_69jf":5,"latitude":49.820310036348978,"longitude":-97.18020204718627,"computed_region_38v8_cedi":84}},{"type":"Feature","id":16,"geometry":{"type":"Point","coordinates":[-97.104798555999992,49.904003977000059]},"properties":{"OBJECTID":16,"station_code":3,"address":"55 Watt St","station_number":2,"station_type":"Fire Paramedic Combined","computed_region_6rfj_69jf":1,"latitude":49.904003976695044,"longitude":-97.104798555781244,"computed_region_38v8_cedi":197}},{"type":"Feature","id":17,"geometry":{"type":"Point","coordinates":[-97.284403268999938,49.857600216000037]},"properties":{"OBJECTID":17,"station_code":3,"address":"5000 Roblin Blvd","station_number":18,"station_type":"Fire Paramedic Combined","computed_region_6rfj_69jf":15,"latitude":49.85760021598967,"longitude":-97.28440326862777,"computed_region_38v8_cedi":219}},{"type":"Feature","id":18,"geometry":{"type":"Point","coordinates":[-97.179521601999966,49.939796238000042]},"properties":{"OBJECTID":18,"station_code":3,"address":"1501 Church Ave","station_number":17,"station_type":"Fire Paramedic Combined","computed_region_6rfj_69jf":12,"latitude":49.939796237857898,"longitude":-97.179521601596392,"computed_region_38v8_cedi":122}},{"type":"Feature","id":19,"geometry":{"type":"Point","coordinates":[-97.146447248999948,49.898645748000035]},"properties":{"OBJECTID":19,"station_code":3,"address":"65 Ellen St","station_number":1,"station_type":"Fire Paramedic Combined","computed_region_6rfj_69jf":12,"latitude":49.898645747924292,"longitude":-97.146447248571107,"computed_region_38v8_cedi":213}},{"type":"Feature","id":20,"geometry":{"type":"Point","coordinates":[-97.003139619999956,49.898549241000069]},"properties":{"OBJECTID":20,"station_code":3,"address":"701 Day St","station_number":25,"station_type":"Fire Paramedic Combined","computed_region_6rfj_69jf":9,"latitude":49.898549240577445,"longitude":-97.003139620109749,"computed_region_38v8_cedi":175}},{"type":"Feature","id":21,"geometry":{"type":"Point","coordinates":[-97.20187262799999,49.849757171000078]},"properties":{"OBJECTID":21,"station_code":3,"address":"1780 Taylor Ave","station_number":12,"station_type":"Fire Paramedic Combined","computed_region_6rfj_69jf":5,"latitude":49.849757170726029,"longitude":-97.201872627817082,"computed_region_38v8_cedi":36}},{"type":"Feature","id":22,"geometry":{"type":"Point","coordinates":[-97.155974227999991,49.782517141000028]},"properties":{"OBJECTID":22,"station_code":1,"address":"880 Dalhousie Dr","station_number":23,"station_type":"Fire Only","computed_region_6rfj_69jf":7,"latitude":49.782517141438369,"longitude":-97.15597422807852,"computed_region_38v8_cedi":201}},{"type":"Feature","id":23,"geometry":{"type":"Point","coordinates":[-97.15725890799996,49.900166884000043]},"properties":{"OBJECTID":23,"station_code":2,"address":"726 Furby St","station_number":31,"station_type":"Paramedic Only","computed_region_6rfj_69jf":3,"latitude":49.900166883719002,"longitude":-97.157258908322987,"computed_region_38v8_cedi":59}},{"type":"Feature","id":24,"geometry":{"type":"Point","coordinates":[-97.288075375999938,49.879917628000044]},"properties":{"OBJECTID":24,"station_code":3,"address":"525 Banting Dr","station_number":20,"station_type":"Fire Paramedic Combined","computed_region_6rfj_69jf":14,"latitude":49.879917627736177,"longitude":-97.288075376208539,"computed_region_38v8_cedi":97}},{"type":"Feature","id":25,"geometry":{"type":"Point","coordinates":[-97.17088425299994,49.897135626000079]},"properties":{"OBJECTID":25,"station_code":3,"address":"845 Sargent Ave","station_number":5,"station_type":"Fire Paramedic Combined","computed_region_6rfj_69jf":3,"latitude":49.897135626372425,"longitude":-97.170884253280335,"computed_region_38v8_cedi":29}},{"type":"Feature","id":26,"geometry":{"type":"Point","coordinates":[-97.047947115999989,49.834218399000065]},"properties":{"OBJECTID":26,"station_code":3,"address":"27 Sage Creek Blvd","station_number":27,"station_type":"Fire Paramedic Combined","computed_region_6rfj_69jf":8,"latitude":49.834218399067417,"longitude":-97.04794711599655,"computed_region_38v8_cedi":200}},{"type":"Feature","id":27,"geometry":{"type":"Point","coordinates":[-97.046879462999982,49.894809911000038]},"properties":{"OBJECTID":27,"station_code":3,"address":"1446 Regent Ave W","station_number":21,"station_type":"Fire Paramedic Combined","computed_region_6rfj_69jf":9,"latitude":49.894809910826034,"longitude":-97.046879463424773,"computed_region_38v8_cedi":44}},{"type":"Feature","id":28,"geometry":{"type":"Point","coordinates":[-97.085190820999969,49.920849850000081]},"properties":{"OBJECTID":28,"station_code":1,"address":"640 Kimberly Ave","station_number":8,"station_type":"Fire Only","computed_region_6rfj_69jf":1,"latitude":49.920849849811809,"longitude":-97.085190820971818,"computed_region_38v8_cedi":112}},{"type":"Feature","id":29,"geometry":{"type":"Point","coordinates":[-97.205988361999971,49.880007571000078]},"properties":{"OBJECTID":29,"station_code":3,"address":"1705 Portage Ave","station_number":11,"station_type":"Fire Paramedic Combined","computed_region_6rfj_69jf":13,"latitude":49.880007570559265,"longitude":-97.205988362342453,"computed_region_38v8_cedi":131}},{"type":"Feature","id":30,"geometry":{"type":"Point","coordinates":[-97.147229765999953,49.856420787000047]},"properties":{"OBJECTID":30,"station_code":3,"address":"799 Lilac St","station_number":13,"station_type":"Fire Paramedic Combined","computed_region_6rfj_69jf":6,"latitude":49.856420787468004,"longitude":-97.147229766175386,"computed_region_38v8_cedi":99}}]
}